Time,header.seq,header.stamp.secs,header.stamp.nsecs,header.frame_id,orientation.x,orientation.y,orientation.z,orientation.w,orientation_covariance_0,orientation_covariance_1,orientation_covariance_2,orientation_covariance_3,orientation_covariance_4,orientation_covariance_5,orientation_covariance_6,orientation_covariance_7,orientation_covariance_8,angular_velocity.x,angular_velocity.y,angular_velocity.z,angular_velocity_covariance_0,angular_velocity_covariance_1,angular_velocity_covariance_2,angular_velocity_covariance_3,angular_velocity_covariance_4,angular_velocity_covariance_5,angular_velocity_covariance_6,angular_velocity_covariance_7,angular_velocity_covariance_8,linear_acceleration.x,linear_acceleration.y,linear_acceleration.z,linear_acceleration_covariance_0,linear_acceleration_covariance_1,linear_acceleration_covariance_2,linear_acceleration_covariance_3,linear_acceleration_covariance_4,linear_acceleration_covariance_5,linear_acceleration_covariance_6,linear_acceleration_covariance_7,linear_acceleration_covariance_8,label
1531930511.313198,4084,1531930511,312945192,base_link,-0.0747996926537,-0.0232080244869,-0.996428019288,-0.0315847424619,1.0,0.0,0.0,0.0,1.0,0.0,0.0,0.0,1.0,-0.0479733981192,0.0289776027203,0.0133441770449,1.21846967915e-07,0.0,0.0,0.0,1.21846967915e-07,0.0,0.0,0.0,1.21846967915e-07,0.32361945,-0.06864655,9.56148375,9e-08,0.0,0.0,0.0,9e-08,0.0,0.0,0.0,9e-08,0
1531930511.6441886,4085,1531930511,643949832,base_link,-0.0873560659148,-0.0365816794886,-0.995051252361,-0.030061664112,1.0,0.0,0.0,0.0,1.0,0.0,0.0,0.0,1.0,0.443806290627,-0.0658158883452,-0.0271305367351,1.21846967915e-07,0.0,0.0,0.0,1.21846967915e-07,0.0,0.0,0.0,1.21846967915e-07,0.12748645,0.32361945,9.97336305,9e-08,0.0,0.0,0.0,9e-08,0.0,0.0,0.0,9e-08,0
1531930512.0585191,4086,1531930512,57775656,base_link,-0.075755700012,-0.157522314233,-0.983878655453,-0.0378230852487,1.0,0.0,0.0,0.0,1.0,0.0,0.0,0.0,1.0,0.630246520042,0.0198097769171,-0.156521528959,1.21846967915e-07,0.0,0.0,0.0,1.21846967915e-07,0.0,0.0,0.0,1.21846967915e-07,-0.34323275,0.1765197,5.79573015,9e-08,0.0,0.0,0.0,9e-08,0.0,0.0,0.0,9e-08,0
1531930512.4202552,4087,1531930512,414845192,base_link,-0.0495188702629,-0.257589593664,-0.963057232439,-0.0609610512622,1.0,0.0,0.0,0.0,1.0,0.0,0.0,0.0,1.0,0.446696698666,0.120574966073,-0.241822481155,1.21846967915e-07,0.0,0.0,0.0,1.21846967915e-07,0.0,0.0,0.0,1.21846967915e-07,-0.91201845,0.50013915,6.1585762,9e-08,0.0,0.0,0.0,9e-08,0.0,0.0,0.0,9e-08,0
1531930512.814615,4088,1531930512,814221448,base_link,-0.010370465402,-0.308720010638,-0.94579044243,-0.100323713479,1.0,0.0,0.0,0.0,1.0,0.0,0.0,0.0,1.0,-0.0887274295092,0.190919563174,-0.248395815492,1.21846967915e-07,0.0,0.0,0.0,1.21846967915e-07,0.0,0.0,0.0,1.21846967915e-07,-1.24544455,-0.2745862,3.1577413,9e-08,0.0,0.0,0.0,9e-08,0.0,0.0,0.0,9e-08,0
1531930513.2222626,4089,1531930513,221533224,base_link,0.00872351323284,-0.326831729707,-0.935224297532,-0.135869180021,1.0,0.0,0.0,0.0,1.0,0.0,0.0,0.0,1.0,-0.000493957661092,0.00995251256973,-0.198972657323,1.21846967915e-07,0.0,0.0,0.0,1.21846967915e-07,0.0,0.0,0.0,1.21846967915e-07,-1.28467115,0.784532,5.18771785,9e-08,0.0,0.0,0.0,9e-08,0.0,0.0,0.0,9e-08,0
1531930513.5493643,4090,1531930513,548850056,base_link,0.032789858294,-0.329353113679,-0.92725795963,-0.17505435729,1.0,0.0,0.0,0.0,1.0,0.0,0.0,0.0,1.0,-0.149172827601,0.107060208917,-0.323924958706,1.21846967915e-07,0.0,0.0,0.0,1.21846967915e-07,0.0,0.0,0.0,1.21846967915e-07,-1.38273765,0.5295591,7.07059465,9e-08,0.0,0.0,0.0,9e-08,0.0,0.0,0.0,9e-08,0
1531930513.9660828,4091,1531930513,965552808,base_link,0.078845092792,-0.299600909642,-0.917671665918,-0.248800039901,1.0,0.0,0.0,0.0,1.0,0.0,0.0,0.0,1.0,-0.05569332093,-0.00496588647366,-0.497261226177,1.21846967915e-07,0.0,0.0,0.0,1.21846967915e-07,0.0,0.0,0.0,1.21846967915e-07,-1.38273765,0.7649187,5.099458,9e-08,0.0,0.0,0.0,9e-08,0.0,0.0,0.0,9e-08,0
1531930514.353299,4092,1531930514,353011944,base_link,0.0928043124451,-0.283249108513,-0.901628843818,-0.313405057576,1.0,0.0,0.0,0.0,1.0,0.0,0.0,0.0,1.0,0.00839432142675,-0.0875575467944,-0.188467770815,1.21846967915e-07,0.0,0.0,0.0,1.21846967915e-07,0.0,0.0,0.0,1.21846967915e-07,-1.4709975,-0.2745862,9.9635564,9e-08,0.0,0.0,0.0,9e-08,0.0,0.0,0.0,9e-08,0
1531930514.5682542,4093,1531930514,567987880,base_link,0.0891817654739,-0.288296845149,-0.894273414188,-0.330464222665,1.0,0.0,0.0,0.0,1.0,0.0,0.0,0.0,1.0,0.0835575386882,-0.0799403563142,-0.139427810907,1.21846967915e-07,0.0,0.0,0.0,1.21846967915e-07,0.0,0.0,0.0,1.21846967915e-07,-1.53964405,-0.00980665,9.12999115,9e-08,0.0,0.0,0.0,9e-08,0.0,0.0,0.0,9e-08,0
1531930515.043613,4094,1531930515,43333576,base_link,0.103104914637,-0.25438045767,-0.886090809812,-0.373501052342,1.0,0.0,0.0,0.0,1.0,0.0,0.0,0.0,1.0,-0.265597522259,-0.121065869927,-0.269413709641,1.21846967915e-07,0.0,0.0,0.0,1.21846967915e-07,0.0,0.0,0.0,1.21846967915e-07,-1.7848103,0.42168595,9.0025047,9e-08,0.0,0.0,0.0,9e-08,0.0,0.0,0.0,9e-08,0
1531930515.4302645,4095,1531930515,429926408,base_link,0.118457348695,-0.198051943627,-0.878418433728,-0.418478600949,1.0,0.0,0.0,0.0,1.0,0.0,0.0,0.0,1.0,-0.198544517159,0.00366319902241,-0.238887533545,1.21846967915e-07,0.0,0.0,0.0,1.21846967915e-07,0.0,0.0,0.0,1.21846967915e-07,-1.569064,-0.38245935,12.0229529,9e-08,0.0,0.0,0.0,9e-08,0.0,0.0,0.0,9e-08,0
1531930515.8489366,4096,1531930515,848637896,base_link,0.123622280168,-0.167601470548,-0.877990102261,-0.430999604696,1.0,0.0,0.0,0.0,1.0,0.0,0.0,0.0,1.0,-0.260483205318,-0.1803201437,0.0479447543621,1.21846967915e-07,0.0,0.0,0.0,1.21846967915e-07,0.0,0.0,0.0,1.21846967915e-07,-1.7259704,0.16671305,11.38552065,9e-08,0.0,0.0,0.0,9e-08,0.0,0.0,0.0,9e-08,0
1531930516.184914,4097,1531930516,183013992,base_link,0.131516897212,-0.125303278542,-0.885915670876,-0.426797162866,1.0,0.0,0.0,0.0,1.0,0.0,0.0,0.0,1.0,-0.190338298678,-0.0499005317688,-0.0561743713915,1.21846967915e-07,0.0,0.0,0.0,1.21846967915e-07,0.0,0.0,0.0,1.21846967915e-07,-1.96133,0.7060788,9.89490985,9e-08,0.0,0.0,0.0,9e-08,0.0,0.0,0.0,9e-08,0
1531930516.5541697,4098,1531930516,553875912,base_link,0.142758000577,-0.0930556949335,-0.885360874467,-0.43254700655,1.0,0.0,0.0,0.0,1.0,0.0,0.0,0.0,1.0,-0.423378139734,0.0012254435569,-0.0916032493114,1.21846967915e-07,0.0,0.0,0.0,1.21846967915e-07,0.0,0.0,0.0,1.21846967915e-07,-1.8632635,0.83356525,10.591182,9e-08,0.0,0.0,0.0,9e-08,0.0,0.0,0.0,9e-08,0
1531930516.8973696,4099,1531930516,894546344,base_link,0.159572356527,-0.073624176363,-0.876278689781,-0.448610969017,1.0,0.0,0.0,0.0,1.0,0.0,0.0,0.0,1.0,0.0458085238934,-0.0486971251667,-0.0971358716488,1.21846967915e-07,0.0,0.0,0.0,1.21846967915e-07,0.0,0.0,0.0,1.21846967915e-07,-2.02997655,-0.9610517,8.9044382,9e-08,0.0,0.0,0.0,9e-08,0.0,0.0,0.0,9e-08,0
1531930517.3381035,4100,1531930517,335873992,base_link,0.155493750448,-0.0573943485705,-0.887754844482,-0.429440238477,1.0,0.0,0.0,0.0,1.0,0.0,0.0,0.0,1.0,0.0062222443521,0.00695806276053,0.128010958433,1.21846967915e-07,0.0,0.0,0.0,1.21846967915e-07,0.0,0.0,0.0,1.21846967915e-07,-1.96133,0.50013915,10.65982855,9e-08,0.0,0.0,0.0,9e-08,0.0,0.0,0.0,9e-08,0
1531930517.7850296,4101,1531930517,784663976,base_link,0.179276881036,-0.00890149953697,-0.890045240295,-0.41904657672,1.0,0.0,0.0,0.0,1.0,0.0,0.0,0.0,1.0,-0.537854194641,-0.0107858013362,-0.0649505108595,1.21846967915e-07,0.0,0.0,0.0,1.21846967915e-07,0.0,0.0,0.0,1.21846967915e-07,-1.91229675,1.0002783,9.24767095,9e-08,0.0,0.0,0.0,9e-08,0.0,0.0,0.0,9e-08,0
1531930518.126608,4102,1531930518,126353352,base_link,0.172982478546,0.00894271484856,-0.887577226085,-0.426853321063,1.0,0.0,0.0,0.0,1.0,0.0,0.0,0.0,1.0,0.084912635386,-0.0620909184217,0.0307709425688,1.21846967915e-07,0.0,0.0,0.0,1.21846967915e-07,0.0,0.0,0.0,1.21846967915e-07,-1.8044236,-0.10787315,10.87557485,9e-08,0.0,0.0,0.0,9e-08,0.0,0.0,0.0,9e-08,0
1531930518.401708,4103,1531930518,401170312,base_link,0.160023711698,-0.0310160544948,-0.892692647804,-0.420155034023,1.0,0.0,0.0,0.0,1.0,0.0,0.0,0.0,1.0,0.327718049288,0.156661659479,0.197361811996,1.21846967915e-07,0.0,0.0,0.0,1.21846967915e-07,0.0,0.0,0.0,1.21846967915e-07,-1.8240369,-0.5491724,7.44324735,9e-08,0.0,0.0,0.0,9e-08,0.0,0.0,0.0,9e-08,0
1531930518.7474432,4104,1531930518,747082760,base_link,0.155173749776,-0.0717750879049,-0.906631592946,-0.385731252051,1.0,0.0,0.0,0.0,1.0,0.0,0.0,0.0,1.0,0.0290741659701,0.0563018992543,0.177518770099,1.21846967915e-07,0.0,0.0,0.0,1.21846967915e-07,0.0,0.0,0.0,1.21846967915e-07,-2.0201699,-0.3530394,9.11037785,9e-08,0.0,0.0,0.0,9e-08,0.0,0.0,0.0,9e-08,0
1531930519.103794,4105,1531930519,103469928,base_link,0.135652503415,-0.0795122750137,-0.912621015032,-0.377358025435,1.0,0.0,0.0,0.0,1.0,0.0,0.0,0.0,1.0,0.177754312754,-0.123558521271,0.0373717136681,1.21846967915e-07,0.0,0.0,0.0,1.21846967915e-07,0.0,0.0,0.0,1.21846967915e-07,-2.04958985,-0.6276256,10.3165958,9e-08,0.0,0.0,0.0,9e-08,0.0,0.0,0.0,9e-08,0
1531930519.5665748,4106,1531930519,566070088,base_link,0.0842482624431,-0.116772639571,-0.917951230504,-0.369637551311,1.0,0.0,0.0,0.0,1.0,0.0,0.0,0.0,1.0,0.173592075706,-0.0832224190235,-0.0400564484298,1.21846967915e-07,0.0,0.0,0.0,1.21846967915e-07,0.0,0.0,0.0,1.21846967915e-07,-1.0983448,0.2745862,12.73883835,9e-08,0.0,0.0,0.0,9e-08,0.0,0.0,0.0,9e-08,0
1531930519.8221605,4107,1531930519,821904392,base_link,0.0519797828724,-0.141144442241,-0.908036715195,-0.3909548215,1.0,0.0,0.0,0.0,1.0,0.0,0.0,0.0,1.0,0.341868489981,-0.16494370997,-0.199887871742,1.21846967915e-07,0.0,0.0,0.0,1.21846967915e-07,0.0,0.0,0.0,1.21846967915e-07,-0.91201845,0.71588545,13.91563635,9e-08,0.0,0.0,0.0,9e-08,0.0,0.0,0.0,9e-08,0
1531930520.155676,4108,1531930520,155133768,base_link,-0.00339571958325,-0.129285882999,-0.893237019543,-0.430582461862,1.0,0.0,0.0,0.0,1.0,0.0,0.0,0.0,1.0,0.294688075781,-0.391976118088,-0.171379476786,1.21846967915e-07,0.0,0.0,0.0,1.21846967915e-07,0.0,0.0,0.0,1.21846967915e-07,0.14709975,-0.1372931,19.13277415,9e-08,0.0,0.0,0.0,9e-08,0.0,0.0,0.0,9e-08,0
1531930520.620155,4109,1531930520,619855624,base_link,-0.109096880104,-0.173961606393,-0.867607964381,-0.452870456527,1.0,0.0,0.0,0.0,1.0,0.0,0.0,0.0,1.0,0.374932080507,-0.167053222656,-0.0679777935147,1.21846967915e-07,0.0,0.0,0.0,1.21846967915e-07,0.0,0.0,0.0,1.21846967915e-07,0.5099458,0.2353596,14.11176935,9e-08,0.0,0.0,0.0,9e-08,0.0,0.0,0.0,9e-08,0
1531930521.0038314,4110,1531930521,3535496,base_link,-0.194005456591,-0.26250047364,-0.827848155848,-0.456204795033,1.0,0.0,0.0,0.0,1.0,0.0,0.0,0.0,1.0,0.282483667135,-0.147989615798,-0.157127574086,1.21846967915e-07,0.0,0.0,0.0,1.21846967915e-07,0.0,0.0,0.0,1.21846967915e-07,1.08853815,1.06892485,9.11037785,9e-08,0.0,0.0,0.0,9e-08,0.0,0.0,0.0,9e-08,0
1531930521.4915996,4111,1531930521,491221736,base_link,-0.214010027444,-0.276273486259,-0.770473593593,-0.533144549368,1.0,0.0,0.0,0.0,1.0,0.0,0.0,0.0,1.0,0.193997099996,-0.305501252413,-0.356194257736,1.21846967915e-07,0.0,0.0,0.0,1.21846967915e-07,0.0,0.0,0.0,1.21846967915e-07,1.1375714,0.14709975,11.67972015,9e-08,0.0,0.0,0.0,9e-08,0.0,0.0,0.0,9e-08,0
1531930521.8651094,4112,1531930521,864854568,base_link,-0.238425539022,-0.275571075069,-0.73631127763,-0.570139936648,1.0,0.0,0.0,0.0,1.0,0.0,0.0,0.0,1.0,-0.0785998553038,-0.193818345666,-0.190114632249,1.21846967915e-07,0.0,0.0,0.0,1.21846967915e-07,0.0,0.0,0.0,1.21846967915e-07,1.5886773,0.4903325,11.93469305,9e-08,0.0,0.0,0.0,9e-08,0.0,0.0,0.0,9e-08,0
1531930522.249463,4113,1531930522,249163016,base_link,-0.250552198815,-0.257938377342,-0.697265771247,-0.620090181676,1.0,0.0,0.0,0.0,1.0,0.0,0.0,0.0,1.0,-0.0640550106764,-0.122682899237,-0.289609879255,1.21846967915e-07,0.0,0.0,0.0,1.21846967915e-07,0.0,0.0,0.0,1.21846967915e-07,1.53964405,0.3334261,13.3566573,9e-08,0.0,0.0,0.0,9e-08,0.0,0.0,0.0,9e-08,0
1531930522.7876914,4114,1531930522,787392808,base_link,-0.305788174891,-0.24924026055,-0.620909962171,-0.677380028857,1.0,0.0,0.0,0.0,1.0,0.0,0.0,0.0,1.0,0.165969133377,-0.137993752956,-0.282749176025,1.21846967915e-07,0.0,0.0,0.0,1.21846967915e-07,0.0,0.0,0.0,1.21846967915e-07,1.3533177,0.59820565,12.75845165,9e-08,0.0,0.0,0.0,9e-08,0.0,0.0,0.0,9e-08,0
1531930523.263425,4115,1531930523,262264808,base_link,-0.329580624625,-0.235220846913,-0.549421644194,-0.730878664308,1.0,0.0,0.0,0.0,1.0,0.0,0.0,0.0,1.0,-0.126227930188,-0.197247669101,-0.27820405364,1.21846967915e-07,0.0,0.0,0.0,1.21846967915e-07,0.0,0.0,0.0,1.21846967915e-07,1.53964405,0.392266,12.56231865,9e-08,0.0,0.0,0.0,9e-08,0.0,0.0,0.0,9e-08,0
1531930523.7096589,4116,1531930523,709414824,base_link,-0.324631117578,-0.191148051935,-0.474058145366,-0.79583034282,1.0,0.0,0.0,0.0,1.0,0.0,0.0,0.0,1.0,-0.0928632766008,-0.2798833251,-0.399253845215,1.21846967915e-07,0.0,0.0,0.0,1.21846967915e-07,0.0,0.0,0.0,1.21846967915e-07,0.980665,0.392266,17.38719045,9e-08,0.0,0.0,0.0,9e-08,0.0,0.0,0.0,9e-08,0
1531930524.0513678,4117,1531930524,51101352,base_link,-0.342780919908,-0.165849198159,-0.41101965655,-0.828286258698,1.0,0.0,0.0,0.0,1.0,0.0,0.0,0.0,1.0,0.176609203219,-0.354694336653,-0.300211519003,1.21846967915e-07,0.0,0.0,0.0,1.21846967915e-07,0.0,0.0,0.0,1.21846967915e-07,0.4511059,0.2745862,15.11204765,9e-08,0.0,0.0,0.0,9e-08,0.0,0.0,0.0,9e-08,0
1531930524.4082668,4118,1531930524,408041128,base_link,-0.40071303222,-0.152260427623,-0.339064681644,-0.837425202422,1.0,0.0,0.0,0.0,1.0,0.0,0.0,0.0,1.0,-0.105661302805,-0.504971027374,-0.233513116837,1.21846967915e-07,0.0,0.0,0.0,1.21846967915e-07,0.0,0.0,0.0,1.21846967915e-07,0.8825985,0.16671305,12.69961175,9e-08,0.0,0.0,0.0,9e-08,0.0,0.0,0.0,9e-08,0
1531930524.7860358,4119,1531930524,782292008,base_link,-0.398234354735,-0.0971066120426,-0.275188459371,-0.869626940956,1.0,0.0,0.0,0.0,1.0,0.0,0.0,0.0,1.0,-0.364893853664,-0.32091075182,-0.224326223135,1.21846967915e-07,0.0,0.0,0.0,1.21846967915e-07,0.0,0.0,0.0,1.21846967915e-07,0.588399,0.51975245,24.0851324,9e-08,0.0,0.0,0.0,9e-08,0.0,0.0,0.0,9e-08,0
1531930525.1516893,4120,1531930525,151337928,base_link,-0.400909641975,-0.0560576993055,-0.221864289698,-0.887076789391,1.0,0.0,0.0,0.0,1.0,0.0,0.0,0.0,1.0,0.0881039127707,-0.342734068632,-0.0865939185023,1.21846967915e-07,0.0,0.0,0.0,1.21846967915e-07,0.0,0.0,0.0,1.21846967915e-07,-0.32361945,-0.48052585,14.17060925,9e-08,0.0,0.0,0.0,9e-08,0.0,0.0,0.0,9e-08,0
1531930525.510923,4121,1531930525,510088904,base_link,-0.409913924599,-0.024616825626,-0.1832061711,-0.893196554621,1.0,0.0,0.0,0.0,1.0,0.0,0.0,0.0,1.0,-0.103253528476,-0.16532330215,-0.201850712299,1.21846967915e-07,0.0,0.0,0.0,1.21846967915e-07,0.0,0.0,0.0,1.21846967915e-07,-0.5687857,0.7453054,13.05265115,9e-08,0.0,0.0,0.0,9e-08,0.0,0.0,0.0,9e-08,0
1531930525.9860172,4122,1531930525,984866344,base_link,-0.417715849352,-0.0175127083164,-0.100335850558,-0.902850758066,1.0,0.0,0.0,0.0,1.0,0.0,0.0,0.0,1.0,0.0110293962061,-0.153828203678,-0.303264290094,1.21846967915e-07,0.0,0.0,0.0,1.21846967915e-07,0.0,0.0,0.0,1.21846967915e-07,-0.8825985,0.4314926,10.787315,9e-08,0.0,0.0,0.0,9e-08,0.0,0.0,0.0,9e-08,0
1531930526.3394358,4123,1531930526,338389576,base_link,-0.431143271771,-0.00905592023803,-0.0435894110003,-0.901184461009,1.0,0.0,0.0,0.0,1.0,0.0,0.0,0.0,1.0,0.0288302432746,-0.238230705261,-0.192003875971,1.21846967915e-07,0.0,0.0,0.0,1.21846967915e-07,0.0,0.0,0.0,1.21846967915e-07,-1.04931155,0.34323275,10.48330885,9e-08,0.0,0.0,0.0,9e-08,0.0,0.0,0.0,9e-08,0
1531930526.691607,4124,1531930526,691331880,base_link,-0.432875116351,0.00558911220329,0.0109676411655,-0.901369849904,1.0,0.0,0.0,0.0,1.0,0.0,0.0,0.0,1.0,0.0285893194377,-0.101980410516,-0.301368772984,1.21846967915e-07,0.0,0.0,0.0,1.21846967915e-07,0.0,0.0,0.0,1.21846967915e-07,-0.7453054,0.04903325,9.2967042,9e-08,0.0,0.0,0.0,9e-08,0.0,0.0,0.0,9e-08,0
1531930527.1102176,4125,1531930527,109828136,base_link,-0.420087566041,0.0200680069658,0.0927304261829,-0.902510265877,1.0,0.0,0.0,0.0,1.0,0.0,0.0,0.0,1.0,-0.0584740750492,-0.208675324917,-0.323213219643,1.21846967915e-07,0.0,0.0,0.0,1.21846967915e-07,0.0,0.0,0.0,1.21846967915e-07,-0.77472535,0.00980665,12.05237285,9e-08,0.0,0.0,0.0,9e-08,0.0,0.0,0.0,9e-08,0
1531930527.452438,4126,1531930527,451384232,base_link,-0.38845949507,0.0336175266911,0.147747828257,-0.90892225291,1.0,0.0,0.0,0.0,1.0,0.0,0.0,0.0,1.0,-0.27743512392,-0.259486794472,-0.177942588925,1.21846967915e-07,0.0,0.0,0.0,1.21846967915e-07,0.0,0.0,0.0,1.21846967915e-07,-0.57859235,0.16671305,14.07254275,9e-08,0.0,0.0,0.0,9e-08,0.0,0.0,0.0,9e-08,0
1531930527.7815309,4127,1531930527,781225032,base_link,-0.325795442474,0.0381700717181,0.180171594161,-0.927328729171,1.0,0.0,0.0,0.0,1.0,0.0,0.0,0.0,1.0,-0.640858113766,-0.0513660162687,-0.176329478621,1.21846967915e-07,0.0,0.0,0.0,1.21846967915e-07,0.0,0.0,0.0,1.21846967915e-07,-0.85317855,1.14737805,11.95430635,9e-08,0.0,0.0,0.0,9e-08,0.0,0.0,0.0,9e-08,0
1531930528.0568504,4128,1531930528,56381448,base_link,-0.214993228645,0.0205656959577,0.223501305725,-0.950474686736,1.0,0.0,0.0,0.0,1.0,0.0,0.0,0.0,1.0,-0.893544375896,-0.146989107132,-0.276354521513,1.21846967915e-07,0.0,0.0,0.0,1.21846967915e-07,0.0,0.0,0.0,1.21846967915e-07,-0.9414384,0.4707192,11.7483667,9e-08,0.0,0.0,0.0,9e-08,0.0,0.0,0.0,9e-08,0
1531930528.5232065,4129,1531930528,522968232,base_link,-0.0473566975667,-0.00570910067829,0.263231774173,-0.963552687937,1.0,0.0,0.0,0.0,1.0,0.0,0.0,0.0,1.0,-0.705126881599,-0.111180387437,-0.0171216633171,1.21846967915e-07,0.0,0.0,0.0,1.21846967915e-07,0.0,0.0,0.0,1.21846967915e-07,-1.10815145,-0.0196133,11.6110736,9e-08,0.0,0.0,0.0,9e-08,0.0,0.0,0.0,9e-08,0
1531930528.7990944,4130,1531930528,798791336,base_link,0.0528015120766,-0.0221381743726,0.259919980944,-0.963931276111,1.0,0.0,0.0,0.0,1.0,0.0,0.0,0.0,1.0,-0.675038993359,-0.0246761888266,0.0148338610306,1.21846967915e-07,0.0,0.0,0.0,1.21846967915e-07,0.0,0.0,0.0,1.21846967915e-07,-1.4513842,0.46091255,11.2580342,9e-08,0.0,0.0,0.0,9e-08,0.0,0.0,0.0,9e-08,0
1531930529.2195742,4131,1531930529,217744968,base_link,0.161669996695,-0.0649553071094,0.251369694363,-0.952080299661,1.0,0.0,0.0,0.0,1.0,0.0,0.0,0.0,1.0,-0.458242893219,0.100775562227,0.0679386034608,1.21846967915e-07,0.0,0.0,0.0,1.21846967915e-07,0.0,0.0,0.0,1.21846967915e-07,-1.16699135,-0.0392266,8.36507245,9e-08,0.0,0.0,0.0,9e-08,0.0,0.0,0.0,9e-08,0
1531930529.5908835,4132,1531930529,590558184,base_link,0.212063852978,-0.0862163797469,0.227793059055,-0.94641744509,1.0,0.0,0.0,0.0,1.0,0.0,0.0,0.0,1.0,-0.130636572838,-0.0669195652008,0.150080934167,1.21846967915e-07,0.0,0.0,0.0,1.21846967915e-07,0.0,0.0,0.0,1.21846967915e-07,-1.3140911,-0.1176798,8.07087295,9e-08,0.0,0.0,0.0,9e-08,0.0,0.0,0.0,9e-08,0
1531930529.9497108,4133,1531930529,949318344,base_link,0.231922382706,-0.0836636267089,0.186616808956,-0.950992414576,1.0,0.0,0.0,0.0,1.0,0.0,0.0,0.0,1.0,-0.154962539673,-0.121139764786,0.243729323149,1.21846967915e-07,0.0,0.0,0.0,1.21846967915e-07,0.0,0.0,0.0,1.21846967915e-07,-1.0002783,-0.02941995,10.2577559,9e-08,0.0,0.0,0.0,9e-08,0.0,0.0,0.0,9e-08,0
1531930530.4045622,4134,1531930530,404276008,base_link,0.26513859846,-0.0885534068591,0.142393235397,-0.949517764054,1.0,0.0,0.0,0.0,1.0,0.0,0.0,0.0,1.0,-0.151883497834,-0.0418419353664,0.108306109905,1.21846967915e-07,0.0,0.0,0.0,1.21846967915e-07,0.0,0.0,0.0,1.21846967915e-07,-0.57859235,-0.0980665,9.2574776,9e-08,0.0,0.0,0.0,9e-08,0.0,0.0,0.0,9e-08,0
1531930530.7897227,4135,1531930530,789115752,base_link,0.251220611609,-0.0801662937523,0.125134449077,-0.956453312663,1.0,0.0,0.0,0.0,1.0,0.0,0.0,0.0,1.0,0.0254228189588,-0.0601289384067,0.219611644745,1.21846967915e-07,0.0,0.0,0.0,1.21846967915e-07,0.0,0.0,0.0,1.21846967915e-07,-0.77472535,-0.67665885,12.13082605,9e-08,0.0,0.0,0.0,9e-08,0.0,0.0,0.0,9e-08,0
1531930531.164239,4136,1531930531,163890280,base_link,0.230903402879,-0.0733786349839,0.0633065386923,-0.968138149556,1.0,0.0,0.0,0.0,1.0,0.0,0.0,0.0,1.0,0.159279122949,-0.225985601544,0.325691401958,1.21846967915e-07,0.0,0.0,0.0,1.21846967915e-07,0.0,0.0,0.0,1.21846967915e-07,-0.3726527,-0.1372931,12.73883835,9e-08,0.0,0.0,0.0,9e-08,0.0,0.0,0.0,9e-08,0
1531930531.5173004,4137,1531930531,517048008,base_link,0.18859569518,-0.0556727275537,0.0157208265493,-0.980349461559,1.0,0.0,0.0,0.0,1.0,0.0,0.0,0.0,1.0,0.321402877569,-0.117941342294,0.194185182452,1.21846967915e-07,0.0,0.0,0.0,1.21846967915e-07,0.0,0.0,0.0,1.21846967915e-07,-0.40207265,0.0784532,12.24850585,9e-08,0.0,0.0,0.0,9e-08,0.0,0.0,0.0,9e-08,0
1531930531.9084904,4138,1531930531,908290920,base_link,0.15354884593,-0.0470847740781,-0.00241526202902,-0.987015674887,1.0,0.0,0.0,0.0,1.0,0.0,0.0,0.0,1.0,0.304582834244,0.0270653385669,-0.0914339274168,1.21846967915e-07,0.0,0.0,0.0,1.21846967915e-07,0.0,0.0,0.0,1.21846967915e-07,-0.6668522,0.8237586,9.7085835,9e-08,0.0,0.0,0.0,9e-08,0.0,0.0,0.0,9e-08,0
1531930532.3107224,4139,1531930532,310478952,base_link,0.0548270393005,-0.0441683933712,0.0188750964373,-0.9973399017,1.0,0.0,0.0,0.0,1.0,0.0,0.0,0.0,1.0,0.57299810648,0.0909604430199,0.0733653903008,1.21846967915e-07,0.0,0.0,0.0,1.21846967915e-07,0.0,0.0,0.0,1.21846967915e-07,-0.6864655,-0.71588545,8.5121722,9e-08,0.0,0.0,0.0,9e-08,0.0,0.0,0.0,9e-08,0
1531930532.668191,4140,1531930532,667625160,base_link,-0.00742484896307,-0.0508752400682,-0.0139877854826,-0.998579452734,1.0,0.0,0.0,0.0,1.0,0.0,0.0,0.0,1.0,0.192428395152,0.0488849543035,0.19931216538,1.21846967915e-07,0.0,0.0,0.0,1.21846967915e-07,0.0,0.0,0.0,1.21846967915e-07,-0.75511205,-0.1372931,7.1784678,9e-08,0.0,0.0,0.0,9e-08,0.0,0.0,0.0,9e-08,0
1531930533.0239005,4141,1531930533,23668392,base_link,-0.0376677102318,-0.0468469492278,-0.0324508842513,-0.997663995073,1.0,0.0,0.0,0.0,1.0,0.0,0.0,0.0,1.0,0.118225231767,0.0235770903528,-0.0629996359348,1.21846967915e-07,0.0,0.0,0.0,1.21846967915e-07,0.0,0.0,0.0,1.21846967915e-07,-0.784532,0.69627215,8.11009955,9e-08,0.0,0.0,0.0,9e-08,0.0,0.0,0.0,9e-08,0
1531930533.429241,4142,1531930533,428990024,base_link,-0.107025932713,-0.059089011871,0.0137507256079,-0.992403575139,1.0,0.0,0.0,0.0,1.0,0.0,0.0,0.0,1.0,0.528846383095,0.151967152953,-0.204389214516,1.21846967915e-07,0.0,0.0,0.0,1.21846967915e-07,0.0,0.0,0.0,1.21846967915e-07,-0.91201845,-0.00980665,7.8845466,9e-08,0.0,0.0,0.0,9e-08,0.0,0.0,0.0,9e-08,0
1531930533.8087933,4143,1531930533,808358600,base_link,-0.201094468864,-0.0614335406471,0.0435060409951,-0.976675052959,1.0,0.0,0.0,0.0,1.0,0.0,0.0,0.0,1.0,0.499446570873,0.00472994334996,-0.144907951355,1.21846967915e-07,0.0,0.0,0.0,1.21846967915e-07,0.0,0.0,0.0,1.21846967915e-07,-0.48052585,0.2745862,8.40429905,9e-08,0.0,0.0,0.0,9e-08,0.0,0.0,0.0,9e-08,0
1531930534.2081723,4144,1531930534,207804552,base_link,-0.266857287095,-0.047387256692,0.0774826283686,-0.959446756485,1.0,0.0,0.0,0.0,1.0,0.0,0.0,0.0,1.0,0.395297020674,-0.225890085101,-0.107623793185,1.21846967915e-07,0.0,0.0,0.0,1.21846967915e-07,0.0,0.0,0.0,1.21846967915e-07,-0.3726527,0.1176798,11.48358715,9e-08,0.0,0.0,0.0,9e-08,0.0,0.0,0.0,9e-08,0
1531930534.492258,4145,1531930534,491994248,base_link,-0.292205615085,-0.0134315923424,0.103467255658,-0.950647146867,1.0,0.0,0.0,0.0,1.0,0.0,0.0,0.0,1.0,-0.123350255191,-0.285524874926,-0.142766237259,1.21846967915e-07,0.0,0.0,0.0,1.21846967915e-07,0.0,0.0,0.0,1.21846967915e-07,0.0,0.61781895,13.46453045,9e-08,0.0,0.0,0.0,9e-08,0.0,0.0,0.0,9e-08,0
1531930534.937209,4146,1531930534,934809000,base_link,-0.286738407361,0.0211893190223,0.161646765251,-0.944035180376,1.0,0.0,0.0,0.0,1.0,0.0,0.0,0.0,1.0,-0.247633516788,-0.212002933025,-0.229212224483,1.21846967915e-07,0.0,0.0,0.0,1.21846967915e-07,0.0,0.0,0.0,1.21846967915e-07,0.1765197,0.2353596,12.05237285,9e-08,0.0,0.0,0.0,9e-08,0.0,0.0,0.0,9e-08,0
1531930535.311275,4147,1531930535,311001896,base_link,-0.31263316112,0.0286127405806,0.213996908437,-0.925011967935,1.0,0.0,0.0,0.0,1.0,0.0,0.0,0.0,1.0,0.274651587009,0.00220556184649,-0.279366523027,1.21846967915e-07,0.0,0.0,0.0,1.21846967915e-07,0.0,0.0,0.0,1.21846967915e-07,0.04903325,0.12748645,8.85540495,9e-08,0.0,0.0,0.0,9e-08,0.0,0.0,0.0,9e-08,0
1531930535.543707,4148,1531930535,543450632,base_link,-0.338946462221,0.0372056715905,0.244528383751,-0.907709702102,1.0,0.0,0.0,0.0,1.0,0.0,0.0,0.0,1.0,0.216003790498,-0.129049554467,-0.244959667325,1.21846967915e-07,0.0,0.0,0.0,1.21846967915e-07,0.0,0.0,0.0,1.21846967915e-07,0.2353596,0.04903325,8.42391235,9e-08,0.0,0.0,0.0,9e-08,0.0,0.0,0.0,9e-08,0
1531930536.0461094,4149,1531930536,45829128,base_link,-0.393186654109,0.0905150341083,0.301861790513,-0.863765444469,1.0,0.0,0.0,0.0,1.0,0.0,0.0,0.0,1.0,0.385040521622,-0.210194185376,-0.186911717057,1.21846967915e-07,0.0,0.0,0.0,1.21846967915e-07,0.0,0.0,0.0,1.21846967915e-07,0.8433719,0.73549875,13.34685065,9e-08,0.0,0.0,0.0,9e-08,0.0,0.0,0.0,9e-08,0
1531930536.5026114,4150,1531930536,502235624,base_link,-0.372564970438,0.132411196804,0.38598670293,-0.833472784754,1.0,0.0,0.0,0.0,1.0,0.0,0.0,0.0,1.0,-0.143110871315,-0.297120124102,-0.338361114264,1.21846967915e-07,0.0,0.0,0.0,1.21846967915e-07,0.0,0.0,0.0,1.21846967915e-07,2.01036325,0.65704555,15.2003075,9e-08,0.0,0.0,0.0,9e-08,0.0,0.0,0.0,9e-08,0
1531930536.7757175,4151,1531930536,774864104,base_link,-0.337487331235,0.156429427287,0.443288076092,-0.81555368746,1.0,0.0,0.0,0.0,1.0,0.0,0.0,0.0,1.0,-0.233713179827,-0.390059858561,-0.300988614559,1.21846967915e-07,0.0,0.0,0.0,1.21846967915e-07,0.0,0.0,0.0,1.21846967915e-07,2.0790098,0.9414384,19.2602606,9e-08,0.0,0.0,0.0,9e-08,0.0,0.0,0.0,9e-08,0
1531930537.1353562,4152,1531930537,134967336,base_link,-0.305708895183,0.176777444009,0.509063982666,-0.784949468595,1.0,0.0,0.0,0.0,1.0,0.0,0.0,0.0,1.0,-0.102911509573,-0.347842484713,-0.271915018559,1.21846967915e-07,0.0,0.0,0.0,1.21846967915e-07,0.0,0.0,0.0,1.21846967915e-07,1.5102241,0.4707192,14.6315218,9e-08,0.0,0.0,0.0,9e-08,0.0,0.0,0.0,9e-08,0
1531930537.4033751,4153,1531930537,403061960,base_link,-0.286047994394,0.203739910993,0.55407239565,-0.754765111773,1.0,0.0,0.0,0.0,1.0,0.0,0.0,0.0,1.0,0.135970249772,-0.400850445032,-0.284275233746,1.21846967915e-07,0.0,0.0,0.0,1.21846967915e-07,0.0,0.0,0.0,1.21846967915e-07,1.8632635,0.196133,14.36674225,9e-08,0.0,0.0,0.0,9e-08,0.0,0.0,0.0,9e-08,0
1531930537.7456985,4154,1531930537,744325256,base_link,-0.266008564186,0.245456166245,0.598886522862,-0.714370804951,1.0,0.0,0.0,0.0,1.0,0.0,0.0,0.0,1.0,0.125269591808,-0.401230871677,-0.224346920848,1.21846967915e-07,0.0,0.0,0.0,1.21846967915e-07,0.0,0.0,0.0,1.21846967915e-07,2.16726965,0.34323275,15.56315355,9e-08,0.0,0.0,0.0,9e-08,0.0,0.0,0.0,9e-08,0
1531930538.1071424,4155,1531930538,106704136,base_link,-0.240370620824,0.289614482116,0.641208913919,-0.66872755671,1.0,0.0,0.0,0.0,1.0,0.0,0.0,0.0,1.0,-0.00104290619493,-0.306548595428,-0.254678934813,1.21846967915e-07,0.0,0.0,0.0,1.21846967915e-07,0.0,0.0,0.0,1.21846967915e-07,1.96133,0.65704555,16.85763135,9e-08,0.0,0.0,0.0,9e-08,0.0,0.0,0.0,9e-08,0
1531930538.4033036,4156,1531930538,402811816,base_link,0.213673585,-0.304175443984,-0.680399436034,0.631567499002,1.0,0.0,0.0,0.0,1.0,0.0,0.0,0.0,1.0,-0.205755770206,-0.1564450562,-0.265664100647,1.21846967915e-07,0.0,0.0,0.0,1.21846967915e-07,0.0,0.0,0.0,1.21846967915e-07,1.5298374,0.36284605,12.13082605,9e-08,0.0,0.0,0.0,9e-08,0.0,0.0,0.0,9e-08,0
1531930538.8638566,4157,1531930538,863527112,base_link,0.143216427934,-0.277382447495,-0.749311984806,0.584020189735,1.0,0.0,0.0,0.0,1.0,0.0,0.0,0.0,1.0,-0.64339363575,-0.376139074564,-0.225719943643,1.21846967915e-07,0.0,0.0,0.0,1.21846967915e-07,0.0,0.0,0.0,1.21846967915e-07,1.0983448,0.55897905,17.26951065,9e-08,0.0,0.0,0.0,9e-08,0.0,0.0,0.0,9e-08,0
1531930539.2144136,4158,1531930539,214003144,base_link,0.0535663118856,-0.217214576783,-0.79469571773,0.564275813841,1.0,0.0,0.0,0.0,1.0,0.0,0.0,0.0,1.0,-0.651112377644,-0.249149754643,-0.150687083602,1.21846967915e-07,0.0,0.0,0.0,1.21846967915e-07,0.0,0.0,0.0,1.21846967915e-07,0.18632635,0.588399,11.58165365,9e-08,0.0,0.0,0.0,9e-08,0.0,0.0,0.0,9e-08,0
1531930539.5113082,4159,1531930539,510926440,base_link,-0.00956830759602,-0.156172900031,-0.826710783531,0.54043293125,1.0,0.0,0.0,0.0,1.0,0.0,0.0,0.0,1.0,-0.657069206238,-0.0488505065441,-0.165645390749,1.21846967915e-07,0.0,0.0,0.0,1.21846967915e-07,0.0,0.0,0.0,1.21846967915e-07,-0.36284605,0.4511059,10.89518815,9e-08,0.0,0.0,0.0,9e-08,0.0,0.0,0.0,9e-08,0
1531930539.982967,4160,1531930539,982701256,base_link,-0.102057496821,-0.0393284969924,-0.841901160743,0.528431615449,1.0,0.0,0.0,0.0,1.0,0.0,0.0,0.0,1.0,-0.78721177578,0.042091473937,-0.00779761141166,1.21846967915e-07,0.0,0.0,0.0,1.21846967915e-07,0.0,0.0,0.0,1.21846967915e-07,-0.9022118,0.9414384,13.4743371,9e-08,0.0,0.0,0.0,9e-08,0.0,0.0,0.0,9e-08,0
1531930540.3436894,4161,1531930540,343353352,base_link,-0.132020337585,0.0260920793541,-0.855515204131,0.49998356909,1.0,0.0,0.0,0.0,1.0,0.0,0.0,0.0,1.0,-0.244720190763,0.0445288382471,-0.0780863910913,1.21846967915e-07,0.0,0.0,0.0,1.21846967915e-07,0.0,0.0,0.0,1.21846967915e-07,-1.32389775,-0.32361945,10.85596155,9e-08,0.0,0.0,0.0,9e-08,0.0,0.0,0.0,9e-08,0
1531930540.698026,4162,1531930540,696828936,base_link,-0.129052490534,0.0959301201996,-0.850222437702,0.501263077789,1.0,0.0,0.0,0.0,1.0,0.0,0.0,0.0,1.0,-0.440002650023,0.260109901428,0.120589800179,1.21846967915e-07,0.0,0.0,0.0,1.21846967915e-07,0.0,0.0,0.0,1.21846967915e-07,-0.93163175,-0.08825985,5.4524974,9e-08,0.0,0.0,0.0,9e-08,0.0,0.0,0.0,9e-08,0
1531930541.1603532,4163,1531930541,159856008,base_link,-0.107739492304,0.18430169532,-0.837932174041,0.502289516721,1.0,0.0,0.0,0.0,1.0,0.0,0.0,0.0,1.0,-0.29750046134,0.155608087778,0.0779029503465,1.21846967915e-07,0.0,0.0,0.0,1.21846967915e-07,0.0,0.0,0.0,1.21846967915e-07,-1.4121576,-0.26477955,3.6873004,9e-08,0.0,0.0,0.0,9e-08,0.0,0.0,0.0,9e-08,0
1531930541.645642,4164,1531930541,645424392,base_link,-0.0809166097112,0.21985436341,-0.815190687921,0.529698691229,1.0,0.0,0.0,0.0,1.0,0.0,0.0,0.0,1.0,0.0596588440239,0.212640196085,0.248974755406,1.21846967915e-07,0.0,0.0,0.0,1.21846967915e-07,0.0,0.0,0.0,1.21846967915e-07,-1.3925443,5.56048301271e-16,4.54047895,9e-08,0.0,0.0,0.0,9e-08,0.0,0.0,0.0,9e-08,0
1531930541.9612288,4165,1531930541,960967880,base_link,-0.0415712785999,0.220795831219,-0.798605094318,0.558346606546,1.0,0.0,0.0,0.0,1.0,0.0,0.0,0.0,1.0,-0.033575117588,0.147956341505,0.242891043425,1.21846967915e-07,0.0,0.0,0.0,1.21846967915e-07,0.0,0.0,0.0,1.21846967915e-07,-1.4709975,-0.10787315,6.0605097,9e-08,0.0,0.0,0.0,9e-08,0.0,0.0,0.0,9e-08,0
1531930542.3663886,4166,1531930542,366175752,base_link,-0.0154474875744,0.225531876767,-0.764298823947,0.603940440278,1.0,0.0,0.0,0.0,1.0,0.0,0.0,0.0,1.0,0.0615648180246,0.0338649898767,0.268962681293,1.21846967915e-07,0.0,0.0,0.0,1.21846967915e-07,0.0,0.0,0.0,1.21846967915e-07,-1.61809725,-0.0392266,7.54131385,9e-08,0.0,0.0,0.0,9e-08,0.0,0.0,0.0,9e-08,0
1531930542.6478922,4167,1531930542,647607048,base_link,-0.0236633287912,0.237960826113,-0.746895525297,0.62045287202,1.0,0.0,0.0,0.0,1.0,0.0,0.0,0.0,1.0,-0.133929640055,0.0295433141291,0.0817559659481,1.21846967915e-07,0.0,0.0,0.0,1.21846967915e-07,0.0,0.0,0.0,1.21846967915e-07,-1.40235095,0.5295591,10.16949605,9e-08,0.0,0.0,0.0,9e-08,0.0,0.0,0.0,9e-08,0
1531930543.0568638,4168,1531930543,56451624,base_link,-0.019608425989,0.223193048153,-0.74987589953,0.622484142923,1.0,0.0,0.0,0.0,1.0,0.0,0.0,0.0,1.0,0.256635338068,-0.0736270397902,0.0617706365883,1.21846967915e-07,0.0,0.0,0.0,1.21846967915e-07,0.0,0.0,0.0,1.21846967915e-07,-1.30428445,-0.6472389,6.20760945,9e-08,0.0,0.0,0.0,9e-08,0.0,0.0,0.0,9e-08,0
1531930543.4429295,4169,1531930543,442665736,base_link,0.0537329883155,0.118123619198,-0.753819947814,0.644139008935,1.0,0.0,0.0,0.0,1.0,0.0,0.0,0.0,1.0,0.722067892551,-0.0461921617389,0.116899132729,1.21846967915e-07,0.0,0.0,0.0,1.21846967915e-07,0.0,0.0,0.0,1.21846967915e-07,-1.0002783,-0.196133,13.0036179,9e-08,0.0,0.0,0.0,9e-08,0.0,0.0,0.0,9e-08,0
1531930544.0109315,4170,1531930544,10681384,base_link,0.161422212741,-0.0477915374641,-0.752471225612,0.636746333171,1.0,0.0,0.0,0.0,1.0,0.0,0.0,0.0,1.0,0.706129074097,-0.12672662735,-0.0602291561663,1.21846967915e-07,0.0,0.0,0.0,1.21846967915e-07,0.0,0.0,0.0,1.21846967915e-07,-0.9414384,0.4314926,10.4931155,9e-08,0.0,0.0,0.0,9e-08,0.0,0.0,0.0,9e-08,0
1531930544.3562212,4171,1531930544,355961576,base_link,0.210617134684,-0.143473264317,-0.7618577475,0.595507025632,1.0,0.0,0.0,0.0,1.0,0.0,0.0,0.0,1.0,0.60122025013,-0.214605987072,-0.161834537983,1.21846967915e-07,0.0,0.0,0.0,1.21846967915e-07,0.0,0.0,0.0,1.21846967915e-07,-0.588399,0.0588399,10.13026945,9e-08,0.0,0.0,0.0,9e-08,0.0,0.0,0.0,9e-08,0
1531930544.7206917,4172,1531930544,720073000,base_link,0.220190683336,-0.211064546589,-0.773561008385,0.55549184193,1.0,0.0,0.0,0.0,1.0,0.0,0.0,0.0,1.0,0.258933156729,-0.229899659753,-0.259734511375,1.21846967915e-07,0.0,0.0,0.0,1.21846967915e-07,0.0,0.0,0.0,1.21846967915e-07,0.20593965,0.784532,12.34657235,9e-08,0.0,0.0,0.0,9e-08,0.0,0.0,0.0,9e-08,0
1531930545.1387732,4173,1531930545,138334792,base_link,0.213716128941,-0.268038645905,-0.810271806513,0.475331778973,1.0,0.0,0.0,0.0,1.0,0.0,0.0,0.0,1.0,0.391380757093,-0.357033371925,-0.366048783064,1.21846967915e-07,0.0,0.0,0.0,1.21846967915e-07,0.0,0.0,0.0,1.21846967915e-07,0.5687857,0.12748645,14.66094175,9e-08,0.0,0.0,0.0,9e-08,0.0,0.0,0.0,9e-08,0
1531930545.6391034,4174,1531930545,638870280,base_link,0.171513080102,-0.327200820124,-0.848365104098,0.37920909379,1.0,0.0,0.0,0.0,1.0,0.0,0.0,0.0,1.0,-0.0171896778047,-0.425593823195,-0.388963490725,1.21846967915e-07,0.0,0.0,0.0,1.21846967915e-07,0.0,0.0,0.0,1.21846967915e-07,1.65732385,1.04931155,17.2204774,9e-08,0.0,0.0,0.0,9e-08,0.0,0.0,0.0,9e-08,0
1531930546.041656,4175,1531930546,41351368,base_link,0.132363851512,-0.36116441312,-0.880140209687,0.27819649315,1.0,0.0,0.0,0.0,1.0,0.0,0.0,0.0,1.0,-0.108544833958,-0.480059862137,-0.315084129572,1.21846967915e-07,0.0,0.0,0.0,1.21846967915e-07,0.0,0.0,0.0,1.21846967915e-07,1.765197,0.7060788,16.58304515,9e-08,0.0,0.0,0.0,9e-08,0.0,0.0,0.0,9e-08,0
1531930546.3492763,4176,1531930546,349020776,base_link,0.100136336886,-0.369574677037,-0.897327567756,0.219523366122,1.0,0.0,0.0,0.0,1.0,0.0,0.0,0.0,1.0,0.0522473976016,-0.360275000334,-0.233915939927,1.21846967915e-07,0.0,0.0,0.0,1.21846967915e-07,0.0,0.0,0.0,1.21846967915e-07,1.6082906,0.44129925,14.03331615,9e-08,0.0,0.0,0.0,9e-08,0.0,0.0,0.0,9e-08,0
1531930546.7976468,4177,1531930546,797426664,base_link,0.0305428047534,-0.377970414795,-0.914381151394,0.141818942996,1.0,0.0,0.0,0.0,1.0,0.0,0.0,0.0,1.0,0.017672766,-0.413172721863,-0.213324680924,1.21846967915e-07,0.0,0.0,0.0,1.21846967915e-07,0.0,0.0,0.0,1.21846967915e-07,1.5886773,0.69627215,19.8682729,9e-08,0.0,0.0,0.0,9e-08,0.0,0.0,0.0,9e-08,0
1531930547.2859657,4178,1531930547,285373512,base_link,-0.0311890381528,-0.380253599616,-0.921857037177,0.0679267759039,1.0,0.0,0.0,0.0,1.0,0.0,0.0,0.0,1.0,-0.253618150949,-0.334023088217,-0.191118001938,1.21846967915e-07,0.0,0.0,0.0,1.21846967915e-07,0.0,0.0,0.0,1.21846967915e-07,1.67693715,0.59820565,14.68055505,9e-08,0.0,0.0,0.0,9e-08,0.0,0.0,0.0,9e-08,0
1531930547.7154183,4179,1531930547,715086824,base_link,-0.0481582758821,-0.357521652473,-0.932368081915,-0.0234266579455,1.0,0.0,0.0,0.0,1.0,0.0,0.0,0.0,1.0,-0.281414538622,-0.228893116117,-0.389461964369,1.21846967915e-07,0.0,0.0,0.0,1.21846967915e-07,0.0,0.0,0.0,1.21846967915e-07,1.46119085,0.38245935,13.0428445,9e-08,0.0,0.0,0.0,9e-08,0.0,0.0,0.0,9e-08,0
1531930548.1254492,4180,1531930548,125045800,base_link,-0.0634699606155,-0.264304611988,-0.957610773528,-0.0953742240029,1.0,0.0,0.0,0.0,1.0,0.0,0.0,0.0,1.0,-0.626630485058,-0.148239642382,-0.276542901993,1.21846967915e-07,0.0,0.0,0.0,1.21846967915e-07,0.0,0.0,0.0,1.21846967915e-07,0.8433719,0.392266,14.2196425,9e-08,0.0,0.0,0.0,9e-08,0.0,0.0,0.0,9e-08,0
1531930548.4174397,4181,1531930548,417118024,base_link,-0.0738354402494,-0.185863463622,-0.970544849222,-0.134334642974,1.0,0.0,0.0,0.0,1.0,0.0,0.0,0.0,1.0,-0.520130693913,-0.211368918419,-0.111532986164,1.21846967915e-07,0.0,0.0,0.0,1.21846967915e-07,0.0,0.0,0.0,1.21846967915e-07,0.00980665,0.196133,13.73911665,9e-08,0.0,0.0,0.0,9e-08,0.0,0.0,0.0,9e-08,0
1531930548.7591474,4182,1531930548,758407048,base_link,-0.0873754394466,-0.0874028735371,-0.979157065569,-0.161176025591,1.0,0.0,0.0,0.0,1.0,0.0,0.0,0.0,1.0,-0.878889143467,-0.0169458799064,-0.0848523527384,1.21846967915e-07,0.0,0.0,0.0,1.21846967915e-07,0.0,0.0,0.0,1.21846967915e-07,-0.12748645,0.1569064,15.3572139,9e-08,0.0,0.0,0.0,9e-08,0.0,0.0,0.0,9e-08,0
1531930549.2049153,4183,1531930549,204677448,base_link,-0.0657393419939,0.041357615962,-0.979386317374,-0.186468034412,1.0,0.0,0.0,0.0,1.0,0.0,0.0,0.0,1.0,-0.492791563272,-0.0633813291788,-0.0546479299664,1.21846967915e-07,0.0,0.0,0.0,1.21846967915e-07,0.0,0.0,0.0,1.21846967915e-07,-0.65704555,-0.30400615,10.38524235,9e-08,0.0,0.0,0.0,9e-08,0.0,0.0,0.0,9e-08,0
1531930549.6337745,4184,1531930549,633424488,base_link,-0.0500169448845,0.0924928092923,-0.977464821279,-0.183046192574,1.0,0.0,0.0,0.0,1.0,0.0,0.0,0.0,1.0,-0.257805734873,0.104860283434,0.0286746043712,1.21846967915e-07,0.0,0.0,0.0,1.21846967915e-07,0.0,0.0,0.0,1.21846967915e-07,-0.7256921,0.1176798,7.46286065,9e-08,0.0,0.0,0.0,9e-08,0.0,0.0,0.0,9e-08,0
1531930550.0016606,4185,1531930550,1193960,base_link,-0.0164358447906,0.125492604652,-0.975428958951,-0.18033251294,1.0,0.0,0.0,0.0,1.0,0.0,0.0,0.0,1.0,-0.156733810902,0.177426323295,0.0347016975284,1.21846967915e-07,0.0,0.0,0.0,1.21846967915e-07,0.0,0.0,0.0,1.21846967915e-07,-0.93163175,0.00980665,6.6881353,9e-08,0.0,0.0,0.0,9e-08,0.0,0.0,0.0,9e-08,0
1531930550.3319728,4186,1531930550,330810024,base_link,0.0162722990403,0.137261300346,-0.97333164255,-0.183084847329,1.0,0.0,0.0,0.0,1.0,0.0,0.0,0.0,1.0,-0.132911652327,0.175270110369,0.0329389832914,1.21846967915e-07,0.0,0.0,0.0,1.21846967915e-07,0.0,0.0,0.0,1.21846967915e-07,-1.06892485,-0.28439285,4.9229383,9e-08,0.0,0.0,0.0,9e-08,0.0,0.0,0.0,9e-08,0
1531930550.8056345,4187,1531930550,805176296,base_link,0.0586877731713,0.0971361794752,-0.980181692777,-0.16237043161,1.0,0.0,0.0,0.0,1.0,0.0,0.0,0.0,1.0,0.149354055524,0.202798575163,0.196967884898,1.21846967915e-07,0.0,0.0,0.0,1.21846967915e-07,0.0,0.0,0.0,1.21846967915e-07,-1.18660465,0.2157463,5.05042475,9e-08,0.0,0.0,0.0,9e-08,0.0,0.0,0.0,9e-08,0
1531930551.250484,4188,1531930551,250190184,base_link,0.0934391474414,0.0888823509188,-0.98132188492,-0.142745968764,1.0,0.0,0.0,0.0,1.0,0.0,0.0,0.0,1.0,0.0715634524822,0.148795455694,-0.0201850701123,1.21846967915e-07,0.0,0.0,0.0,1.21846967915e-07,0.0,0.0,0.0,1.21846967915e-07,-1.18660465,0.4118793,4.4326058,9e-08,0.0,0.0,0.0,9e-08,0.0,0.0,0.0,9e-08,0
1531930551.7498124,4189,1531930551,749514984,base_link,0.110537641353,0.0601640564962,-0.982756025655,-0.135470698639,1.0,0.0,0.0,0.0,1.0,0.0,0.0,0.0,1.0,0.109533585608,0.0298809148371,0.0770377069712,1.21846967915e-07,0.0,0.0,0.0,1.21846967915e-07,0.0,0.0,0.0,1.21846967915e-07,-1.02969825,0.28439285,9.69877685,9e-08,0.0,0.0,0.0,9e-08,0.0,0.0,0.0,9e-08,0
1531930552.1847084,4190,1531930552,184499720,base_link,0.112336596559,0.0528337117829,-0.985160328929,-0.118525163053,1.0,0.0,0.0,0.0,1.0,0.0,0.0,0.0,1.0,-0.0105798412114,-0.0150025747716,0.0542592741549,1.21846967915e-07,0.0,0.0,0.0,1.21846967915e-07,0.0,0.0,0.0,1.21846967915e-07,-1.0395049,0.0392266,6.93330155,9e-08,0.0,0.0,0.0,9e-08,0.0,0.0,0.0,9e-08,0
1531930552.502947,4191,1531930552,502642024,base_link,0.102418573962,0.0546623546108,-0.986832644677,-0.112622351669,1.0,0.0,0.0,0.0,1.0,0.0,0.0,0.0,1.0,-0.118757590652,-0.0742341205478,0.029217178002,1.21846967915e-07,0.0,0.0,0.0,1.21846967915e-07,0.0,0.0,0.0,1.21846967915e-07,-0.63743225,-0.1569064,11.87585315,9e-08,0.0,0.0,0.0,9e-08,0.0,0.0,0.0,9e-08,0
1531930552.9621744,4192,1531930552,959556488,base_link,0.0825721960555,0.0465141867765,-0.992261664416,-0.0802187770871,1.0,0.0,0.0,0.0,1.0,0.0,0.0,0.0,1.0,-0.0158296264708,-0.0618365481496,0.20692692697,1.21846967915e-07,0.0,0.0,0.0,1.21846967915e-07,0.0,0.0,0.0,1.21846967915e-07,-0.6080123,0.06864655,11.22861425,9e-08,0.0,0.0,0.0,9e-08,0.0,0.0,0.0,9e-08,0
1531930553.4007924,4193,1531930553,400045480,base_link,0.059385714017,0.0541704478536,-0.993867316372,-0.0759385080012,1.0,0.0,0.0,0.0,1.0,0.0,0.0,0.0,1.0,0.0540761575103,-0.0739377140999,-0.078336507082,1.21846967915e-07,0.0,0.0,0.0,1.21846967915e-07,0.0,0.0,0.0,1.21846967915e-07,0.0,0.20593965,11.32668075,9e-08,0.0,0.0,0.0,9e-08,0.0,0.0,0.0,9e-08,0
1531930553.7723784,4194,1531930553,771966664,base_link,0.0340244970912,0.0464227769273,-0.995075511301,-0.080696878432,1.0,0.0,0.0,0.0,1.0,0.0,0.0,0.0,1.0,0.0192047860473,-0.114745289087,0.0236084312201,1.21846967915e-07,0.0,0.0,0.0,1.21846967915e-07,0.0,0.0,0.0,1.21846967915e-07,0.20593965,-0.1372931,13.4351105,9e-08,0.0,0.0,0.0,9e-08,0.0,0.0,0.0,9e-08,0
1531930554.1699102,4195,1531930554,169521192,base_link,0.0116653361711,0.0283993473582,-0.997396611204,-0.0652487314814,1.0,0.0,0.0,0.0,1.0,0.0,0.0,0.0,1.0,0.134508982301,-0.0834014713764,0.08672183007,1.21846967915e-07,0.0,0.0,0.0,1.21846967915e-07,0.0,0.0,0.0,1.21846967915e-07,0.1569064,-0.12748645,10.1793027,9e-08,0.0,0.0,0.0,9e-08,0.0,0.0,0.0,9e-08,0
1531930554.4456615,4196,1531930554,445217320,base_link,0.00181112835334,0.0138726609977,-0.998532396601,-0.0523194230504,1.0,0.0,0.0,0.0,1.0,0.0,0.0,0.0,1.0,0.0112512577325,-0.0288410186768,0.0353422760963,1.21846967915e-07,0.0,0.0,0.0,1.21846967915e-07,0.0,0.0,0.0,1.21846967915e-07,0.2745862,0.2941995,10.9246081,9e-08,0.0,0.0,0.0,9e-08,0.0,0.0,0.0,9e-08,0
1531930554.9516838,4197,1531930554,951257704,base_link,-0.0100606273813,-0.0271292218244,-0.997950370487,-0.0570775537744,1.0,0.0,0.0,0.0,1.0,0.0,0.0,0.0,1.0,0.221648916602,-0.0259055327624,-0.0124027328566,1.21846967915e-07,0.0,0.0,0.0,1.21846967915e-07,0.0,0.0,0.0,1.21846967915e-07,0.24516625,0.2745862,10.75789505,9e-08,0.0,0.0,0.0,9e-08,0.0,0.0,0.0,9e-08,0
1531930555.249678,4198,1531930555,249325128,base_link,-0.0109521052073,-0.0357693104199,-0.997198426881,-0.064775807597,1.0,0.0,0.0,0.0,1.0,0.0,0.0,0.0,1.0,0.105739146471,0.00886518508196,-0.115441709757,1.21846967915e-07,0.0,0.0,0.0,1.21846967915e-07,0.0,0.0,0.0,1.21846967915e-07,0.24516625,0.1765197,8.8063717,9e-08,0.0,0.0,0.0,9e-08,0.0,0.0,0.0,9e-08,0
1531930555.7659075,4199,1531930555,764715432,base_link,-0.0173549366824,-0.0427988706503,-0.997008030269,-0.0619842756084,1.0,0.0,0.0,0.0,1.0,0.0,0.0,0.0,1.0,-0.104382798076,0.0201339386404,-0.044112958014,1.21846967915e-07,0.0,0.0,0.0,1.21846967915e-07,0.0,0.0,0.0,1.21846967915e-07,0.3138128,0.6472389,9.28689755,9e-08,0.0,0.0,0.0,9e-08,0.0,0.0,0.0,9e-08,0
1531930556.1998746,4200,1531930556,199572424,base_link,-0.00859644213161,-0.0192163088434,-0.995752507291,-0.0896313498803,1.0,0.0,0.0,0.0,1.0,0.0,0.0,0.0,1.0,-0.0193585492671,0.0375902168453,-0.0671517550945,1.21846967915e-07,0.0,0.0,0.0,1.21846967915e-07,0.0,0.0,0.0,1.21846967915e-07,0.2745862,-0.4314926,11.4737805,9e-08,0.0,0.0,0.0,9e-08,0.0,0.0,0.0,9e-08,0
1531930556.5192332,4201,1531930556,518929768,base_link,-0.0108413337857,-0.0215477158352,-0.997131490352,-0.0717422634999,1.0,0.0,0.0,0.0,1.0,0.0,0.0,0.0,1.0,-0.00264267250896,-0.0120232887566,0.146342203021,1.21846967915e-07,0.0,0.0,0.0,1.21846967915e-07,0.0,0.0,0.0,1.21846967915e-07,0.3726527,-0.1176798,8.11009955,9e-08,0.0,0.0,0.0,9e-08,0.0,0.0,0.0,9e-08,0
1531930556.8341503,4202,1531930556,831202504,base_link,-0.0159279900988,0.00261327288728,-0.998594781523,-0.0504770467737,1.0,0.0,0.0,0.0,1.0,0.0,0.0,0.0,1.0,-0.202664777637,-0.0405269525945,0.112942002714,1.21846967915e-07,0.0,0.0,0.0,1.21846967915e-07,0.0,0.0,0.0,1.21846967915e-07,0.36284605,0.2353596,10.4538889,9e-08,0.0,0.0,0.0,9e-08,0.0,0.0,0.0,9e-08,0
1531930557.2089484,4203,1531930557,208634216,base_link,-0.0150592791502,-0.00598114606814,-0.998257686243,-0.0567365478406,1.0,0.0,0.0,0.0,1.0,0.0,0.0,0.0,1.0,-0.0606086924672,0.0315475389361,-0.101105295122,1.21846967915e-07,0.0,0.0,0.0,1.21846967915e-07,0.0,0.0,0.0,1.21846967915e-07,0.63743225,0.08825985,9.8851032,9e-08,0.0,0.0,0.0,9e-08,0.0,0.0,0.0,9e-08,0
1531930557.4427586,4204,1531930557,442483080,base_link,-0.0101649546326,-0.00729003515591,-0.997767001622,-0.0656089899223,1.0,0.0,0.0,0.0,1.0,0.0,0.0,0.0,1.0,0.0330826304853,0.0577196627855,-0.024833612144,1.21846967915e-07,0.0,0.0,0.0,1.21846967915e-07,0.0,0.0,0.0,1.21846967915e-07,0.4118793,-0.0784532,8.54159215,9e-08,0.0,0.0,0.0,9e-08,0.0,0.0,0.0,9e-08,0
1531930557.7480738,4205,1531930557,747810120,base_link,-0.00535577773295,0.00953774243395,-0.997716862011,-0.0666439072526,1.0,0.0,0.0,0.0,1.0,0.0,0.0,0.0,1.0,-0.0866964831948,0.0204106140882,0.0105385379866,1.21846967915e-07,0.0,0.0,0.0,1.21846967915e-07,0.0,0.0,0.0,1.21846967915e-07,0.59820565,-0.16671305,9.1986377,9e-08,0.0,0.0,0.0,9e-08,0.0,0.0,0.0,9e-08,0
1531930558.1154714,4206,1531930558,114500680,base_link,-0.0017910096306,0.0208841598783,-0.998372808933,-0.0530318633853,1.0,0.0,0.0,0.0,1.0,0.0,0.0,0.0,1.0,-0.0601276308298,0.0705442354083,0.116550408304,1.21846967915e-07,0.0,0.0,0.0,1.21846967915e-07,0.0,0.0,0.0,1.21846967915e-07,0.50013915,0.73549875,8.7671451,9e-08,0.0,0.0,0.0,9e-08,0.0,0.0,0.0,9e-08,0
1531930558.5186136,4207,1531930558,518156936,base_link,0.0050000102366,0.04377401229,-0.996949286511,-0.0644279122087,1.0,0.0,0.0,0.0,1.0,0.0,0.0,0.0,1.0,0.0227074306458,0.00306383892894,-0.119273483753,1.21846967915e-07,0.0,0.0,0.0,1.21846967915e-07,0.0,0.0,0.0,1.21846967915e-07,0.67665885,0.08825985,9.5320638,9e-08,0.0,0.0,0.0,9e-08,0.0,0.0,0.0,9e-08,0
1531930558.9168231,4208,1531930558,916483784,base_link,-0.00196986019525,0.029662475855,-0.997537719882,-0.0635197181114,1.0,0.0,0.0,0.0,1.0,0.0,0.0,0.0,1.0,-0.0747669786215,-0.0433175973594,0.109022408724,1.21846967915e-07,0.0,0.0,0.0,1.21846967915e-07,0.0,0.0,0.0,1.21846967915e-07,0.65704555,0.08825985,10.13026945,9e-08,0.0,0.0,0.0,9e-08,0.0,0.0,0.0,9e-08,0
1531930559.2010176,4209,1531930559,200713640,base_link,-0.00952603141582,0.0333556583573,-0.998336371765,-0.0460558746662,1.0,0.0,0.0,0.0,1.0,0.0,0.0,0.0,1.0,0.0291116125882,-0.0507079511881,0.111187376082,1.21846967915e-07,0.0,0.0,0.0,1.21846967915e-07,0.0,0.0,0.0,1.21846967915e-07,0.61781895,0.44129925,10.7088618,9e-08,0.0,0.0,0.0,9e-08,0.0,0.0,0.0,9e-08,0
1531930559.600934,4210,1531930559,600610824,base_link,-0.0154937942803,0.0213869543696,-0.9988315016,-0.040474336729,1.0,0.0,0.0,0.0,1.0,0.0,0.0,0.0,1.0,0.175095960498,-0.00541887059808,-0.0531265251338,1.21846967915e-07,0.0,0.0,0.0,1.21846967915e-07,0.0,0.0,0.0,1.21846967915e-07,0.67665885,0.6668522,9.6693569,9e-08,0.0,0.0,0.0,9e-08,0.0,0.0,0.0,9e-08,0
1531930560.001922,4211,1531930560,1060232,base_link,-0.0197195083261,-0.0326951532623,-0.997476081096,-0.059863474553,1.0,0.0,0.0,0.0,1.0,0.0,0.0,0.0,1.0,0.133395045996,-0.00528213195503,-0.0438663028181,1.21846967915e-07,0.0,0.0,0.0,1.21846967915e-07,0.0,0.0,0.0,1.21846967915e-07,0.71588545,0.10787315,10.22833595,9e-08,0.0,0.0,0.0,9e-08,0.0,0.0,0.0,9e-08,0
1531930560.41241,4212,1531930560,412100008,base_link,-0.0263784764604,-0.0494695207751,-0.996436344345,-0.0630202678634,1.0,0.0,0.0,0.0,1.0,0.0,0.0,0.0,1.0,-0.177921488881,-0.0142460707575,-0.036008156836,1.21846967915e-07,0.0,0.0,0.0,1.21846967915e-07,0.0,0.0,0.0,1.21846967915e-07,0.8237586,0.5295591,11.32668075,9e-08,0.0,0.0,0.0,9e-08,0.0,0.0,0.0,9e-08,0
1531930560.7536492,4213,1531930560,753381000,base_link,-0.0298499620295,-0.040773411334,-0.996281578957,-0.0697819756494,1.0,0.0,0.0,0.0,1.0,0.0,0.0,0.0,1.0,0.0779348835349,-0.0367025360465,-0.0130573967472,1.21846967915e-07,0.0,0.0,0.0,1.21846967915e-07,0.0,0.0,0.0,1.21846967915e-07,1.0983448,0.0588399,10.83634825,9e-08,0.0,0.0,0.0,9e-08,0.0,0.0,0.0,9e-08,0
1531930561.1394627,4214,1531930561,135989960,base_link,-0.0285689538099,-0.0383196924682,-0.995974079606,-0.0758356697085,1.0,0.0,0.0,0.0,1.0,0.0,0.0,0.0,1.0,0.0159621164203,-0.00226458348334,-0.0751320570707,1.21846967915e-07,0.0,0.0,0.0,1.21846967915e-07,0.0,0.0,0.0,1.21846967915e-07,1.0787315,0.42168595,10.6107953,9e-08,0.0,0.0,0.0,9e-08,0.0,0.0,0.0,9e-08,0
1531930561.466053,4215,1531930561,465801544,base_link,-0.0265993037452,-0.0425651988083,-0.995166781412,-0.08440235817,1.0,0.0,0.0,0.0,1.0,0.0,0.0,0.0,1.0,0.00520825199783,0.0257096663117,-0.0286848135293,1.21846967915e-07,0.0,0.0,0.0,1.21846967915e-07,0.0,0.0,0.0,1.21846967915e-07,0.8237586,0.0588399,9.93413645,9e-08,0.0,0.0,0.0,9e-08,0.0,0.0,0.0,9e-08,0
1531930561.7995555,4216,1531930561,799325928,base_link,-0.0251600285097,-0.0617251418109,-0.992770039264,-0.0998229882023,1.0,0.0,0.0,0.0,1.0,0.0,0.0,0.0,1.0,0.108105272055,0.018951004371,-0.0922818332911,1.21846967915e-07,0.0,0.0,0.0,1.21846967915e-07,0.0,0.0,0.0,1.21846967915e-07,0.53936575,-0.1569064,9.52225715,9e-08,0.0,0.0,0.0,9e-08,0.0,0.0,0.0,9e-08,0
1531930562.2256584,4217,1531930562,225063368,base_link,-0.0220150251487,-0.0741019386941,-0.990993949153,-0.109339993099,1.0,0.0,0.0,0.0,1.0,0.0,0.0,0.0,1.0,-0.0349577516317,0.0197225231677,-0.0215985924006,1.21846967915e-07,0.0,0.0,0.0,1.21846967915e-07,0.0,0.0,0.0,1.21846967915e-07,0.65704555,-0.2353596,8.07087295,9e-08,0.0,0.0,0.0,9e-08,0.0,0.0,0.0,9e-08,0
1531930562.6190004,4218,1531930562,618690888,base_link,-0.0208586343263,-0.0790807523977,-0.990806807441,-0.10776373371,1.0,0.0,0.0,0.0,1.0,0.0,0.0,0.0,1.0,0.146171048284,0.0333418473601,-0.0178722515702,1.21846967915e-07,0.0,0.0,0.0,1.21846967915e-07,0.0,0.0,0.0,1.21846967915e-07,0.4118793,0.2549729,9.5320638,9e-08,0.0,0.0,0.0,9e-08,0.0,0.0,0.0,9e-08,0
1531930563.1165686,4219,1531930563,116339624,base_link,-0.0213455213009,-0.133052554712,-0.982557793035,-0.128146672806,1.0,0.0,0.0,0.0,1.0,0.0,0.0,0.0,1.0,0.23266300559,0.0108746849,-0.120685242116,1.21846967915e-07,0.0,0.0,0.0,1.21846967915e-07,0.0,0.0,0.0,1.21846967915e-07,0.55897905,0.12748645,10.93441475,9e-08,0.0,0.0,0.0,9e-08,0.0,0.0,0.0,9e-08,0
1531930563.439035,4220,1531930563,437562408,base_link,-0.0221564509215,-0.181308379852,-0.97170839906,-0.149730258377,1.0,0.0,0.0,0.0,1.0,0.0,0.0,0.0,1.0,0.301967859268,0.0168748013675,-0.164512649179,1.21846967915e-07,0.0,0.0,0.0,1.21846967915e-07,0.0,0.0,0.0,1.21846967915e-07,0.4903325,0.22555295,9.2770909,9e-08,0.0,0.0,0.0,9e-08,0.0,0.0,0.0,9e-08,0
1531930563.914784,4221,1531930563,914048456,base_link,-0.0332328050465,-0.25267417306,-0.945324689967,-0.20350079478,1.0,0.0,0.0,0.0,1.0,0.0,0.0,0.0,1.0,0.143958508968,-0.0831601992249,-0.240985065699,1.21846967915e-07,0.0,0.0,0.0,1.21846967915e-07,0.0,0.0,0.0,1.21846967915e-07,0.6080123,0.57859235,9.8262633,9e-08,0.0,0.0,0.0,9e-08,0.0,0.0,0.0,9e-08,0
1531930564.2699363,4222,1531930564,269539944,base_link,-0.0450641630487,-0.270392523912,-0.9294277091,-0.247024771589,1.0,0.0,0.0,0.0,1.0,0.0,0.0,0.0,1.0,0.0170809365809,-0.135269701481,-0.249818906188,1.21846967915e-07,0.0,0.0,0.0,1.21846967915e-07,0.0,0.0,0.0,1.21846967915e-07,0.69627215,0.69627215,10.6696352,9e-08,0.0,0.0,0.0,9e-08,0.0,0.0,0.0,9e-08,0
1531930564.640742,4223,1531930564,640519784,base_link,-0.0629165235234,-0.296116100077,-0.904431306093,-0.300600696774,1.0,0.0,0.0,0.0,1.0,0.0,0.0,0.0,1.0,0.34097507596,-0.185559421778,-0.331605345011,1.21846967915e-07,0.0,0.0,0.0,1.21846967915e-07,0.0,0.0,0.0,1.21846967915e-07,0.73549875,0.0980665,9.48303055,9e-08,0.0,0.0,0.0,9e-08,0.0,0.0,0.0,9e-08,0
1531930565.0310986,4224,1531930565,30783784,base_link,-0.104929530488,-0.32540984668,-0.869403017199,-0.356702423597,1.0,0.0,0.0,0.0,1.0,0.0,0.0,0.0,1.0,0.00977170653641,-0.277868896723,-0.234652712941,1.21846967915e-07,0.0,0.0,0.0,1.21846967915e-07,0.0,0.0,0.0,1.21846967915e-07,1.20621795,0.46091255,11.79739995,9e-08,0.0,0.0,0.0,9e-08,0.0,0.0,0.0,9e-08,0
1531930565.3381276,4225,1531930565,337731848,base_link,-0.138327412148,-0.329285413475,-0.843480835969,-0.401219046,1.0,0.0,0.0,0.0,1.0,0.0,0.0,0.0,1.0,0.0397018529475,-0.308283060789,-0.241352140903,1.21846967915e-07,0.0,0.0,0.0,1.21846967915e-07,0.0,0.0,0.0,1.21846967915e-07,1.65732385,0.67665885,14.1608026,9e-08,0.0,0.0,0.0,9e-08,0.0,0.0,0.0,9e-08,0
1531930565.8478546,4226,1531930565,845507784,base_link,-0.166918262048,-0.294069100603,-0.801791151358,-0.492739898394,1.0,0.0,0.0,0.0,1.0,0.0,0.0,0.0,1.0,-0.261187821627,-0.286767929792,-0.359422236681,1.21846967915e-07,0.0,0.0,0.0,1.21846967915e-07,0.0,0.0,0.0,1.21846967915e-07,1.6475172,0.75511205,13.56259695,9e-08,0.0,0.0,0.0,9e-08,0.0,0.0,0.0,9e-08,0
1531930566.198581,4227,1531930566,198331784,base_link,-0.182623722076,-0.256085595626,-0.770420248545,-0.554546106721,1.0,0.0,0.0,0.0,1.0,0.0,0.0,0.0,1.0,0.0735120549798,-0.292770475149,-0.237673684955,1.21846967915e-07,0.0,0.0,0.0,1.21846967915e-07,0.0,0.0,0.0,1.21846967915e-07,1.2748645,0.08825985,14.87668805,9e-08,0.0,0.0,0.0,9e-08,0.0,0.0,0.0,9e-08,0
1531930566.5683184,4228,1531930566,567936008,base_link,-0.204199379058,-0.21622491109,-0.741316917192,-0.601663219501,1.0,0.0,0.0,0.0,1.0,0.0,0.0,0.0,1.0,-0.217837065458,-0.276195317507,-0.215999186039,1.21846967915e-07,0.0,0.0,0.0,1.21846967915e-07,0.0,0.0,0.0,1.21846967915e-07,1.1571847,0.38245935,13.6116302,9e-08,0.0,0.0,0.0,9e-08,0.0,0.0,0.0,9e-08,0
1531930567.0883062,4229,1531930567,88038184,base_link,-0.193666193674,-0.147147917527,-0.705659766958,-0.665496197654,1.0,0.0,0.0,0.0,1.0,0.0,0.0,0.0,1.0,-0.353410899639,-0.13588064909,-0.229086071253,1.21846967915e-07,0.0,0.0,0.0,1.21846967915e-07,0.0,0.0,0.0,1.21846967915e-07,0.77472535,0.6668522,12.1798593,9e-08,0.0,0.0,0.0,9e-08,0.0,0.0,0.0,9e-08,0
1531930567.4077108,4230,1531930567,407229768,base_link,-0.157423720814,-0.0976709253222,-0.686256043911,-0.703371029164,1.0,0.0,0.0,0.0,1.0,0.0,0.0,0.0,1.0,-0.310105711222,-0.0714603364468,-0.194644644856,1.21846967915e-07,0.0,0.0,0.0,1.21846967915e-07,0.0,0.0,0.0,1.21846967915e-07,0.14709975,0.4707192,10.36562905,9e-08,0.0,0.0,0.0,9e-08,0.0,0.0,0.0,9e-08,0
1531930567.8237069,4231,1531930567,823429160,base_link,-0.123319259988,-0.0492008627886,-0.669490443553,-0.730858523387,1.0,0.0,0.0,0.0,1.0,0.0,0.0,0.0,1.0,-0.417603820562,-0.0406633280218,-0.0519481487572,1.21846967915e-07,0.0,0.0,0.0,1.21846967915e-07,0.0,0.0,0.0,1.21846967915e-07,0.02941995,0.392266,10.9246081,9e-08,0.0,0.0,0.0,9e-08,0.0,0.0,0.0,9e-08,0
1531930568.2562876,4232,1531930568,255833736,base_link,-0.0713558478643,-0.00966211297042,-0.656487174864,-0.750892519464,1.0,0.0,0.0,0.0,1.0,0.0,0.0,0.0,1.0,-0.156099647284,0.0418405085802,-0.105964131653,1.21846967915e-07,0.0,0.0,0.0,1.21846967915e-07,0.0,0.0,0.0,1.21846967915e-07,-0.40207265,0.2745862,8.9240515,9e-08,0.0,0.0,0.0,9e-08,0.0,0.0,0.0,9e-08,0
1531930568.6428592,4233,1531930568,642035560,base_link,-0.0405387725776,0.0018552296859,-0.646445929129,-0.7618797981,1.0,0.0,0.0,0.0,1.0,0.0,0.0,0.0,1.0,-0.202742770314,0.0783897638321,-0.0487272813916,1.21846967915e-07,0.0,0.0,0.0,1.21846967915e-07,0.0,0.0,0.0,1.21846967915e-07,-0.5687857,0.1176798,8.237586,9e-08,0.0,0.0,0.0,9e-08,0.0,0.0,0.0,9e-08,0
1531930568.9615254,4234,1531930568,961266920,base_link,0.0119394535546,0.0250323710114,-0.639395055071,-0.768378027667,1.0,0.0,0.0,0.0,1.0,0.0,0.0,0.0,1.0,-0.376401752234,0.126683950424,-0.0550292059779,1.21846967915e-07,0.0,0.0,0.0,1.21846967915e-07,0.0,0.0,0.0,1.21846967915e-07,-0.5687857,0.2549729,8.1787461,9e-08,0.0,0.0,0.0,9e-08,0.0,0.0,0.0,9e-08,0
1531930569.4399168,4235,1531930569,439643752,base_link,0.08090135368,0.0494749511388,-0.63594659902,-0.765884536583,1.0,0.0,0.0,0.0,1.0,0.0,0.0,0.0,1.0,-0.29506739974,0.10722412169,0.0496725700796,1.21846967915e-07,0.0,0.0,0.0,1.21846967915e-07,0.0,0.0,0.0,1.21846967915e-07,-0.5099458,-0.22555295,8.5317855,9e-08,0.0,0.0,0.0,9e-08,0.0,0.0,0.0,9e-08,0
1531930569.7726529,4236,1531930569,772276360,base_link,0.112467181025,0.0493425926824,-0.651362837844,-0.748760906576,1.0,0.0,0.0,0.0,1.0,0.0,0.0,0.0,1.0,-0.107265025377,0.0920790731907,0.155520826578,1.21846967915e-07,0.0,0.0,0.0,1.21846967915e-07,0.0,0.0,0.0,1.21846967915e-07,-0.55897905,-0.10787315,5.5113373,9e-08,0.0,0.0,0.0,9e-08,0.0,0.0,0.0,9e-08,0
1531930570.2737055,4237,1531930570,271236744,base_link,0.12987860712,0.0380031393771,-0.67209078311,-0.727998137407,1.0,0.0,0.0,0.0,1.0,0.0,0.0,0.0,1.0,-0.104370571673,0.0505601838231,0.102827452123,1.21846967915e-07,0.0,0.0,0.0,1.21846967915e-07,0.0,0.0,0.0,1.21846967915e-07,-0.4707192,0.0196133,8.1591328,9e-08,0.0,0.0,0.0,9e-08,0.0,0.0,0.0,9e-08,0
1531930570.616089,4238,1531930570,614679496,base_link,0.128533501566,0.0305528212742,-0.681727543499,-0.719578501987,1.0,0.0,0.0,0.0,1.0,0.0,0.0,0.0,1.0,0.0590482018888,0.00236042030156,0.0558451414108,1.21846967915e-07,0.0,0.0,0.0,1.21846967915e-07,0.0,0.0,0.0,1.21846967915e-07,-0.4511059,0.1176798,10.9638347,9e-08,0.0,0.0,0.0,9e-08,0.0,0.0,0.0,9e-08,0
1531930571.0094934,4239,1531930571,9132904,base_link,0.115200173709,0.0131896618744,-0.698753822636,-0.705902293628,1.0,0.0,0.0,0.0,1.0,0.0,0.0,0.0,1.0,0.044563729316,0.0385387428105,0.125521406531,1.21846967915e-07,0.0,0.0,0.0,1.21846967915e-07,0.0,0.0,0.0,1.21846967915e-07,-0.20593965,-0.20593965,8.73772515,9e-08,0.0,0.0,0.0,9e-08,0.0,0.0,0.0,9e-08,0
1531930571.3473103,4240,1531930571,347004360,base_link,0.0904021433754,-0.00676863856803,-0.716427916907,-0.691746107962,1.0,0.0,0.0,0.0,1.0,0.0,0.0,0.0,1.0,0.230794921517,-0.0809920802712,0.128594502807,1.21846967915e-07,0.0,0.0,0.0,1.21846967915e-07,0.0,0.0,0.0,1.21846967915e-07,-0.16671305,0.04903325,10.1008495,9e-08,0.0,0.0,0.0,9e-08,0.0,0.0,0.0,9e-08,0
1531930571.7624748,4241,1531930571,762220264,base_link,0.0679608997374,-0.0204447361821,-0.731266284977,-0.678389968473,1.0,0.0,0.0,0.0,1.0,0.0,0.0,0.0,1.0,0.000599617138505,-0.0315162502229,0.00672024302185,1.21846967915e-07,0.0,0.0,0.0,1.21846967915e-07,0.0,0.0,0.0,1.21846967915e-07,0.06864655,0.6472389,10.6107953,9e-08,0.0,0.0,0.0,9e-08,0.0,0.0,0.0,9e-08,0
1531930572.2118566,4242,1531930572,211321480,base_link,0.0362073915279,-0.0424047997123,-0.71350346591,-0.698429425136,1.0,0.0,0.0,0.0,1.0,0.0,0.0,0.0,1.0,0.229364722967,-0.0463342741132,-0.115308657289,1.21846967915e-07,0.0,0.0,0.0,1.21846967915e-07,0.0,0.0,0.0,1.21846967915e-07,0.24516625,0.0980665,10.50292215,9e-08,0.0,0.0,0.0,9e-08,0.0,0.0,0.0,9e-08,0
1531930572.728064,4243,1531930572,727587144,base_link,-0.0140272239869,-0.0581514958426,-0.703826902031,-0.707848382421,1.0,0.0,0.0,0.0,1.0,0.0,0.0,0.0,1.0,0.0327394604683,-0.0942478477955,0.0445442162454,1.21846967915e-07,0.0,0.0,0.0,1.21846967915e-07,0.0,0.0,0.0,1.21846967915e-07,0.34323275,-0.10787315,12.56231865,9e-08,0.0,0.0,0.0,9e-08,0.0,0.0,0.0,9e-08,0
1531930573.1004016,4244,1531930573,100160968,base_link,-0.0204830069271,-0.038186895995,-0.715587769431,-0.697177417622,1.0,0.0,0.0,0.0,1.0,0.0,0.0,0.0,1.0,-0.0414611510932,-0.0491372793913,0.0776958763599,1.21846967915e-07,0.0,0.0,0.0,1.21846967915e-07,0.0,0.0,0.0,1.21846967915e-07,0.38245935,0.6276256,11.8464332,9e-08,0.0,0.0,0.0,9e-08,0.0,0.0,0.0,9e-08,0
1531930573.541263,4245,1531930573,540971976,base_link,-0.0258867517159,-0.0310999067156,-0.709721274547,-0.703319546396,1.0,0.0,0.0,0.0,1.0,0.0,0.0,0.0,1.0,0.215785562992,0.0232701208442,-0.153441682458,1.21846967915e-07,0.0,0.0,0.0,1.21846967915e-07,0.0,0.0,0.0,1.21846967915e-07,0.38245935,0.5295591,9.5712904,9e-08,0.0,0.0,0.0,9e-08,0.0,0.0,0.0,9e-08,0
1531930574.0112624,4246,1531930574,10435208,base_link,-0.0113964782248,-0.0171205714725,-0.685564166254,-0.727721636524,1.0,0.0,0.0,0.0,1.0,0.0,0.0,0.0,1.0,-0.0725357234478,-0.0212055351585,-0.0828888490796,1.21846967915e-07,0.0,0.0,0.0,1.21846967915e-07,0.0,0.0,0.0,1.21846967915e-07,0.0980665,-0.1765197,10.75789505,9e-08,0.0,0.0,0.0,9e-08,0.0,0.0,0.0,9e-08,0
1531930574.3539135,4247,1531930574,353541640,base_link,-0.0170844689643,-0.0165430217594,-0.683614894092,-0.729455362532,1.0,0.0,0.0,0.0,1.0,0.0,0.0,0.0,1.0,0.293336689472,-0.0498340800405,-0.0275588165969,1.21846967915e-07,0.0,0.0,0.0,1.21846967915e-07,0.0,0.0,0.0,1.21846967915e-07,-0.0784532,-0.0588399,10.0420096,9e-08,0.0,0.0,0.0,9e-08,0.0,0.0,0.0,9e-08,0
